DWO ID,Bureau stn_num,DWO name,latitude,longitude
2001,68241,Albion Park,-34.5638,150.79
2002,72160,Albury-wodonga,-36.069,146.9509
2003,58131,Alstonville,-28.8521,153.4556
2004,56037,Armidale,-30.5264,151.6697
2005,67108,Badgerys Creek,-33.8969,150.7281
2006,58198,Ballina,-28.8353,153.5585
2007,49002,Balranald,-34.6398,143.561
2008,66137,Bankstown,-33.9181,150.9864
2009,53002,Baradine,-30.9469,149.0654
2010,54003,Barraba,-30.3781,150.6096
2011,69134,Batemans Bay,-35.7234,150.1872
2012,63005,Bathurst,-33.4289,149.5559
2013,69139,Bega,-36.6722,149.8191
2014,68228,Bellambi,-34.3691,150.9291
2015,70328,Bombala,-37.0016,149.2336
2016,48245,Bourke,-30.0362,145.9521
2017,68102,Bowral,-34.4869,150.4019
2018,69132,Braidwood,-35.4253,149.7835
2019,48015,Brewarrina,-29.9614,146.8651
2020,47007,Broken Hill,-31.9759,141.4676
2021,73007,Burrinjuck Dam,-34.9997,148.5984
2022,58216,Byron Bay,-28.6399,153.6358
2023,72161,Cabramurra,-35.9371,148.3779
2024,68192,Camden,-34.0391,150.689
2025,66194,Canterbury,-33.9057,151.1134
2026,58208,Casino,-28.8775,153.052
2027,61260,Cessnock ,-32.7886,151.3377
2028,71003,Charlotte Pass,-36.4335,148.3327
2029,48027,Cobar,-31.484,145.8294
2030,59040,Coffs Harbour,-30.3107,153.1187
2031,48031,Collarenebri,-29.5407,148.5818
2032,50137,Condobolin,-33.0682,147.2133
2033,70278,Cooma,-36.2318,149.1243
2034,64008,Coonabarabran,-31.2712,149.2714
2035,51161,Coonamble,-30.9776,148.3798
2036,73142,Cootamundra,-34.6299,148.0364
2037,74034,Corowa,-35.9887,146.3574
2038,65111,Cowra,-33.8449,148.6497
2039,74258,Deniliquin,-35.5575,144.9458
2040,59140,Dorrigo,-30.3442,152.7187
2041,65070,Dubbo,-32.2206,148.5753
2042,64009,Dunedoo,-32.0159,149.3964
2043,58212,Evans Head,-29.183,153.3964
2045,65103,Forbes,-33.3627,147.9205
2046,60013,Forster,-32.1756,152.5089
2047,56013,Glen Innes,-29.6953,151.6936
2048,61087,Gosford,-33.3949,151.3289
2049,70330,Goulburn,-34.8085,149.7312
2050,58130,Grafton,-29.6823,152.9278
2051,69137,Green Cape,-37.2622,150.0504
2052,73014,Grenfell,-33.9029,148.1718
2053,75041,Griffith,-34.2487,146.0695
2054,62013,Gulgong,-32.3634,149.5329
2055,73141,Gundagai,-35.0479,148.1075
2056,55202,Gunnedah,-30.9537,150.2494
2057,56229,Guyra,-30.2126,151.6787
2058,75031,Hay,-34.5194,144.8545
2059,75032,Hillston,-33.4915,145.5249
2060,67117,Holsworthy,-33.9795,150.9254
2061,66195,Sydney Olympic Park,-33.8521,151.0646
2062,67119,Horsley Park,-33.8511,150.8567
2063,72023,Hume Reservoir,-36.1039,147.0329
2064,56018,Inverell,-29.7752,151.0819
2065,49000,Ivanhoe,-32.8831,144.3088
2066,61086,Jerrys Plains,-32.4972,150.9093
2067,68151,Jervis Bay,-35.0936,150.8049
2068,63039,Katoomba,-33.7122,150.3087
2069,59017,Kempsey,-31.077,152.8235
2070,72162,Khancoban,-36.2304,148.1405
2071,75039,Lake Cargelligo,-33.2833,146.3707
2072,47016,Lake Victoria,-34.0398,141.2652
2073,48243,Lightning Ridge,-29.431,147.9722
2074,58221,Lismore,-28.7853,153.3409
2075,63226,Lithgow,-33.4769,150.1303
2076,67020,Liverpool,-33.9214,150.8861
2077,200839,Lord Howe Island,-31.5421,159.0786
2078,61288,Lostock,-32.3322,151.4595
2079,61388,Maitland,-32.7427,151.5683
2080,61375,Mangrove Mountain,-33.2894,151.2107
2081,47019,Menindee,-32.3937,142.4173
2082,69147,Merimbula,-36.9077,149.8989
2083,69017,Montague Island,-36.2519,150.2275
2084,53115,Moree,-29.4914,149.8458
2085,69018,Moruya,-35.9093,150.1532
2086,68239,Moss Vale,-34.5253,150.4217
2087,63292,Mount Boyce,-33.6185,150.2741
2088,62101,Mudgee,-32.5628,149.6149
2089,52020,Mungindi,-28.9786,148.9899
2090,61051,Murrurundi,-31.7651,150.8363
2091,58158,Murwillumbah,-28.3395,153.3809
2092,69022,Narooma ,-36.2144,150.1358
2093,54038,Narrabri,-30.3154,149.8302
2094,74221,Narrandera,-34.7325,146.5592
2095,61054,Nelson Bay,-32.7103,152.1612
2096,69049,Nerriga,-35.1165,150.0847
2097,61055,Newcastle,-32.9185,151.7985
2098,61390,Newcastle University,-32.8905,151.707
2099,61366,Norah Head,-33.2815,151.5766
2100,200288,Norfolk Island,-29.0389,167.9408
2101,68072,Nowra,-34.9469,150.5353
2102,62100,Nullo Mountain,-32.7244,150.229
2103,51039,Nyngan,-31.5495,147.1961
2104,63063,Oberon,-33.6774,149.8374
2105,63303,Orange,-33.3813,149.127
2106,65026,Parkes,-33.1419,148.1639
2107,66124,Parramatta,-33.7917,151.0181
2108,61250,Paterson,-32.6296,151.5919
2109,50031,Peak Hill,-32.7235,148.1902
2110,61351,Peats Ridge,-33.3102,151.2443
2111,67113,Penrith,-33.7195,150.6783
2112,71072,Perisher Valley,-36.4033,148.4104
2113,54104,Pindari,-29.3899,151.2448
2114,47029,Pooncarie,-33.3856,142.5696
2115,60139,Port Macquarie ,-31.4336,152.8655
2116,67019,Prospect Dam,-33.8193,150.9127
2117,73032,Quandialla ,-34.0112,147.7937
2118,55049,Quirindi ,-31.5086,150.6792
2119,67105,Richmond ,-33.6004,150.7761
2120,66131,Lane Cove,-33.8258,151.1556
2121,61363,Scone ,-32.0335,150.8264
2122,61397,Singleton ,-32.5918,151.1743
2123,59030,South West Rocks,-30.9225,153.087
2124,66062,Sydney,-33.8607,151.205
2125,66037,Sydney Airport ,-33.9411,151.1725
2126,57095,Tabulam ,-28.7551,152.4507
2127,55325,Tamworth ,-31.0742,150.8362
2128,70080,Taralga,-34.4048,149.8197
2129,60141,Taree ,-31.8896,152.512
2130,73151,Temora ,-34.4292,147.5111
2131,56032,Tenterfield ,-29.0479,152.0172
2132,71032,Thredbo Top Station,-36.4917,148.2859
2133,71041,Thredbo Village,-36.5031,148.304
2134,46037,Tibooburra,-29.4345,142.0098
2135,74106,Tocumwal ,-35.817,145.6004
2136,51049,Trangie ,-31.9861,147.9489
2137,72043,Tumbarumba ,-35.778,148.0141
2138,69138,Ulladulla ,-35.3635,150.4827
2139,72150,Wagga Wagga ,-35.1583,147.4573
2140,52088,Walgett ,-30.0372,148.1223
2141,48079,Wanaaring ,-29.7029,144.1482
2142,65034,Wellington,-32.5635,148.9503
2143,46042,White Cliffs ,-30.8506,143.0893
2144,46043,Wilcannia  ,-31.5631,143.3747
2145,61078,Williamtown ,-32.7932,151.8359
2146,68228,Wollongong ,-34.3691,150.9291
2147,55136,Woolbrook,-30.9672,151.3451
2148,73054,Wyalong ,-33.9262,147.2418
2149,58012,Yamba ,-29.4333,153.3633
2150,74037,Yanco ,-34.6223,146.4328
2151,60085,Mount Seaview,-31.3865,152.2482
2152,70091,Yass ,-34.8313,148.9113
2153,73138,Young,-34.2493,148.2475
2154,66059,Terrey Hills ,-33.6908,151.2253
2155,46128,Fowlers Gap,-31.0867,141.7017
2156,63077,Springwood,-33.7065,150.5848
2157,68257,Campbelltown,-34.0615,150.7735
2158,61287,Merriwa,-32.1852,150.1737
2159,61412,Lake Macquarie,-33.0887,151.4636
2801,70014,Canberra,-35.3049,149.2014
2802,70339,Tuggeranong,-35.4184,149.0937
2803,70310,Tidbinbilla,-35.4408,148.9422
2804,70349,Mount Ginini,-35.5293,148.7721
3001,90180,Aireys Inlet,-38.4583,144.0883
3002,89085,Ararat,-37.2775,142.9811
3003,87113,Avalon,-38.0287,144.4783
3004,85279,Bairnsdale,-37.8817,147.5669
3005,89002,Ballarat,-37.5127,143.7911
3006,82137,Beechworth,-36.3192,146.6803
3007,82170,Benalla,-36.5523,145.9977
3008,81123,Bendigo,-36.7395,144.3266
3009,86351,Bundoora,-37.7163,145.0453
3010,90184,Cape Nelson,-38.4306,141.5437
3011,90015,Cape Otway,-38.8556,143.5128
3012,90182,Casterton,-37.583,141.3339
3013,88110,Castlemaine,-37.0809,144.2392
3014,86361,Cerberus,-38.3646,145.1785
3015,90035,Colac (Mt Gellibrand),-38.2333,143.7925
3016,86383,Coldstream,-37.7239,145.4094
3017,84143,Combienbar,-37.3417,149.0228
3018,82169,Corryong,-36.1828,147.8938
3019,86375,Cranbourne,-38.1348,145.2637
3020,82076,Dartmouth,-36.5353,147.4984
3021,86372,Mount Dandenong,-37.8775,145.3364
3022,85072,Sale,-38.1156,147.1322
3023,80015,Echuca,-36.1647,144.7642
3024,83083,Edi Upper,-36.7396,146.4671
3025,88164,Haines Saddle,-37.2091,145.8423
3026,86038,Essendon,-37.7276,144.9066
3027,83084,Falls Creek,-36.8708,147.2755
3028,86371,Frankston,-38.1481,145.1156
3029,84016,Gabo Island,-37.5679,149.9158
3030,87163,Geelong,-38.2241,144.3345
3031,84142,Gelantipy,-37.22,148.2625
3032,90173,Hamilton,-37.6486,142.0636
3034,79023,Horsham (Polkemmet),-36.6613,142.0687
3035,79100,Horsham,-36.6697,142.1731
3036,82139,Hunters Hill,-36.2136,147.5394
3037,80023,Kerang,-35.7236,143.9197
3038,88162,Kilmore Gap,-37.3807,144.9654
3039,80091,Kyabram,-36.335,145.0638
3040,88023,Lake Eildon,-37.2313,145.9124
3041,84150,Lakes Entrance,-37.8717,148.006
3042,85280,Latrobe Valley,-38.2094,146.4747
3043,87031,Laverton,-37.8565,144.7566
3044,79028,Longerenong,-36.6722,142.2991
3045,79101,Ben Nevis,-37.2281,143.2006
3046,84084,Mallacoota,-37.5976,149.7289
3047,88109,Mangalore,-36.8886,145.1859
3048,88043,Maryborough,-37.056,143.732
3049,86282,Melbourne Airport,-37.6655,144.8321
3050,86071,Melbourne,-37.8075,144.97
3051,76031,Mildura,-34.2358,142.0867
3052,86077,Moorabbin,-37.98,145.0964
3053,90176,Mortlake,-38.0737,142.7744
3054,83024,Mount Buller,-37.145,146.4394
3055,83085,Mount Hotham,-36.9767,147.1342
3057,85296,Mount Moornapa,-37.7481,147.1428
3058,84144,Mount Nowa Nowa,-37.6924,148.0908
3059,78015,Nhill,-36.3092,141.6486
3060,85277,Noojee (Slivar),-37.9039,145.9719
3061,83090,Omeo,-37.1017,147.6008
3062,84145,Orbost,-37.6922,148.4667
3063,76047,Ouyen,-35.0694,142.3158
3064,86354,Phillip Island,-38.5058,145.1503
3065,84070,Point Hicks,-37.8017,149.2747
3066,87166,Point Wilson,-38.0958,144.5361
3067,90175,Port Fairy,-38.3906,142.2347
3068,90171,Portland,-38.3148,141.4705
3069,88051,Redesdale,-37.0194,144.5203
3070,86373,Rhyll,-38.4612,145.3101
3071,82039,Rutherglen,-36.1047,146.5094
3072,86104,Scoresby,-37.871,145.2561
3073,87168,Sheoaks,-37.9075,144.1303
3074,81125,Shepparton,-36.4289,145.3947
3075,79105,Stawell,-37.068,142.7412
3076,82042,Strathbogie,-36.8472,145.7308
3077,77094,Swan Hill,-35.3766,143.5416
3078,81049,Tatura,-36.4378,145.2672
3079,86068,Watsonia,-37.7408,145.0972
3080,76064,Walpeup,-35.1201,142.004
3081,82138,Wangaratta,-36.4206,146.3056
3082,78077,Warracknabeal,-36.2614,142.405
3083,90186,Warrnambool,-38.2867,142.4522
3084,90083,Weeaproinah,-38.6357,143.5127
3085,85096,Wilsons Promontory,-39.1297,146.4244
3086,86127,Wonthaggi,-38.6078,145.5965
3087,81124,Yarrawonga,-36.0294,146.0306
3088,200838,Hogan Island,-39.2225,146.9841
3089,86071,Melbourne City,-37.8075,144.97
3090,77010,Hopetoun,-35.7151,142.3569
3091,79097,Kanagulk,-37.1169,141.8031
3092,80128,Charlton,-36.2847,143.3341
3093,86068,Viewbank,-37.7408,145.0972
3094,89112,Westmere,-37.7067,142.9378
3095,85291,Mount Baw Baw,-37.8383,146.2747
3096,79099,Edenhope,-37.0222,141.2656
3097,79103,Mount William (Grampians),-37.295,142.6039
3098,85151,Yarram,-38.5647,146.7479
3099,85099,Pound Creek,-38.6297,145.8107
3100,85283,Willow Grove,-38.0808,146.2139
3101,90194,Dartmoor,-37.9222,141.2614
4001,33295,Alva Beach,-19.4569,147.4833
4002,40004,Amberley,-27.6297,152.7111
4003,40211,Archerfield,-27.5717,153.0078
4005,33002,Ayr,-19.6169,147.3758
4007,39004,Baralaba,-24.1819,149.8117
4008,36007,Barcaldine,-23.5544,145.2883
4009,38000,Bedourie,-24.3597,139.4714
4010,40284,Beerburrum ,-26.9586,152.9619
4011,38026,Birdsville,-25.8975,139.3472
4012,36034,Blackall,-24.4303,145.4306
4014,44010,Bollon,-28.0336,147.4803
4015,38003,Boulia,-22.9117,139.9039
4016,33257,Bowen,-20.0151,148.2152
4018,35149,Brigalow Research Station,-24.8353,149.8003
4019,40913,Brisbane,-27.4808,153.0389
4020,40842,Brisbane Airport,-27.3917,153.1292
4021,39128,Bundaberg,-24.8885,152.3235
4022,29077,Burketown Airport,-17.7483,139.5356
4024,31011,Cairns,-16.8736,145.7458
4025,37010,Camooweal,-19.9225,138.1214
4026,40043,Cape Moreton,-27.0314,153.4661
4027,32004,Cardwell,-18.2553,146.0197
4028,44021,Charleville,-26.4139,146.2558
4029,34084,Charters Towers,-20.0464,146.2708
4030,35019,Clermont,-22.8239,147.6425
4031,29141,Cloncurry,-20.6664,140.505
4032,27054,Coconut Island,-10.0511,143.0686
4033,27073,Coen,-13.7606,143.1183
4034,33013,Collinsville,-20.5534,147.8464
4035,31209,Cooktown,-15.4461,145.1861
4036,40717,Coolangatta,-28.1681,153.5053
4037,29012,Croydon,-18.2044,142.2447
4038,44026,Cunnamulla,-28.0706,145.6808
4039,41522,Dalby,-27.1605,151.2634
4041,40068,Double Island Point,-25.9319,153.1906
4042,35264,Emerald,-23.5694,148.1756
4043,200783,Flinders Reef,-17.7195,148.4478
4044,40082,Gatton,-27.5436,152.3375
4045,39066,Gayndah Airport,-25.6167,151.6156
4047,30124,Georgetown,-18.3039,143.5306
4048,39326,Gladstone Airport,-23.8697,151.2214
4049,39123,Gladstone,-23.8553,151.2628
4050,40764,Gold Coast,-27.939,153.4283
4051,41521,Goondiwindi,-28.5211,150.3256
4052,31192,Green Island,-16.7614,145.9719
4053,40093,Gympie,-26.1831,152.6414
4054,33106,Hamilton Island,-20.3658,148.9536
4055,39122,Heron Island,-23.4422,151.9131
4056,40405,Hervey Bay,-25.322,152.8817
4057,40584,Hinze Dam,-28.0481,153.2875
4058,200732,Holmes Reef,-16.4683,147.8734
4059,27058,Horn Island,-10.5844,142.29
4060,30022,Hughenden,-20.8192,144.2333
4061,32078,Ingham,-18.6494,146.1769
4062,41097,Inglewood,-28.3429,150.9363
4063,43015,Injune,-25.8428,148.5669
4064,32025,Innisfail,-17.5249,146.0345
4065,36026,Isisford,-24.2591,144.4406
4066,40651,Jimna,-26.6644,152.4606
4067,29058,Julia Creek,-20.6672,141.7214
4068,31034,Kairi,-17.215,145.5656
4069,40922,Kingaroy,-26.5737,151.8398
4070,29038,Kowanyama,-15.4818,141.7483
4071,39059,Lady Elliot Island,-24.1116,152.7161
4072,28008,Lockhart River,-12.785,143.3047
4073,40854,Logan City,-27.6839,153.1947
4074,36031,Longreach,-23.4372,144.2769
4075,31037,Low Isles,-16.3842,145.5592
4076,32141,Lucinda Point,-18.5203,146.3861
4077,33045,Mackay Airport,-21.1706,149.1794
4078,33119,Mackay,-21.1172,149.2169
4079,40121,Maleny,-26.7528,152.8519
4080,31210,Mareeba,-17.0672,145.4283
4081,40861,Maroochydore,-26.6006,153.0903
4082,40126,Maryborough,-25.5161,152.7156
4083,42112,Miles,-26.6569,150.1819
4085,43020,Mitchell,-26.4888,147.9777
4086,39104,Monto,-24.8642,151.1247
4087,34038,Moranbah,-21.9947,148.0308
4088,29039,Mornington Island,-16.664,139.1837
4089,29127,Mount Isa,-20.6778,139.4875
4090,28007,Musgrave,-14.7803,143.5036
4091,40988,Nambour,-26.6442,152.9383
4092,29063,Normanton,-17.6872,141.0733
4093,41359,Oakey,-27.4034,151.7413
4094,28004,Palmerville,-16.0008,144.0758
4095,40209,Point Lookout,-27.4361,153.5456
4096,33247,Proserpine,-20.4925,148.555
4097,45015,Quilpie,-26.6125,144.2578
4098,40856,Rainbow Beach,-25.9007,153.0891
4099,40958,Redcliffe,-27.2169,153.0922
4100,30161,Richmond Airport,-20.7017,143.1167
4101,30045,Richmond,-20.7289,143.1425
4102,39083,Rockhampton,-23.3753,150.4775
4103,35059,Rolleston,-24.4619,148.6261
4104,43091,Roma,-26.5442,148.7778
4105,39322,Rundle Island,-23.5293,151.2763
4106,33308,Samuel Hill,-22.7433,150.6578
4107,39085,Sandy Cape,-24.7297,153.2083
4108,32037,South Johnstone,-17.6053,145.9972
4109,35065,Springsure,-24.1221,148.0866
4110,43109,St George,-28.0489,148.5942
4111,33065,St Lawrence,-22.3458,149.5356
4112,41095,Stanthorpe,-28.6617,151.9339
4113,43035,Surat,-27.159,149.0703
4114,29139,Sweers Island,-17.1142,139.5981
4115,35069,Tambo,-24.8819,146.2564
4116,35070,Taroom,-25.6408,149.7958
4117,33047,Te Kowai,-21.1642,149.1192
4118,40908,Tewantin,-26.3911,153.0403
4119,41100,Texas,-28.8544,151.1681
4120,39089,Thangool,-24.4935,150.5709
4121,45025,Thargomindah Airport,-27.9867,143.815
4124,40555,Toolara,-25.9714,152.8608
4126,41529,Toowoomba,-27.5425,151.9134
4127,39314,Seventeen Seventy,-24.1542,151.8875
4128,32040,Townsville,-19.2483,146.7661
4130,37043,Urandangie,-21.6119,138.3136
4131,31108,Walkamin,-17.1347,145.4281
4132,41525,Warwick,-28.2061,152.1003
4133,27045,Weipa,-12.6778,141.9208
4134,200283,Willis Island,-16.2878,149.9652
4135,38024,Windorah,-25.4228,142.6564
4136,37039,Winton Airport,-22.3617,143.0836
4137,37051,Winton,-22.3908,143.0386
4138,33307,Woolshed,-19.4167,146.5364
4139,33294,Yeppoon,-23.1364,150.7506
4140,41175,Applethorpe,-28.6217,151.9533
4141,40983,Beaudesert,-27.9707,152.9898
4142,31213,Cape Flattery,-14.9672,145.3106
4143,29167,Century Mine,-18.7569,138.7056
4144,40265,Redlands,-27.5278,153.25
4145,200001,Middle Percy Island,-21.6628,150.2711
4146,33195,Williamson,-22.4703,150.1786
5001,23034,Adelaide Airport,-34.9524,138.5204
5002,23090,Adelaide,-34.9211,138.6216
5003,16065,Andamooka,-30.449,137.1692
5004,17099,Arkaroola,-30.311,139.3357
5005,22823,Cape Borda,-35.7549,136.5959
5006,26095,Cape Jaffa,-36.9655,139.7164
5008,22803,Cape Willoughby,-35.8426,138.1327
5009,18012,Ceduna,-32.1297,133.6976
5010,21131,Clare,-33.8226,138.5933
5011,18116,Cleve,-33.7081,136.5026
5012,16090,Coober Pedy,-29.0347,134.7222
5013,26091,Coonawarra,-37.2906,140.8254
5014,18191,Coles Point,-34.3749,135.3741
5015,23083,Edinburgh ,-34.7111,138.6222
5016,22046,Edithburgh,-35.1121,137.7395
5017,18069,Elliston,-33.6501,134.888
5018,24511,Eudunda,-34.1754,139.0847
5019,20028,Gluepot  ,-33.7622,140.1251
5020,19017,Hawker,-31.8846,138.435
5021,23894,Hindmarsh Island,-35.5194,138.8177
5022,22050,Kadina,-33.9703,137.6628
5023,25006,Karoonda,-35.09,139.8972
5024,25507,Keith,-36.098,140.3556
5025,18040,Kimba,-33.1414,136.4125
5026,22841,Kingscote,-35.7114,137.5231
5027,23887,Kuitpo  ,-35.1712,138.6783
5028,18044,Kyancutta,-33.1332,135.5552
5029,25562,Lameroo,-35.3778,140.5378
5030,17110,Leigh Creek,-30.5963,138.4219
5031,24024,Loxton ,-34.439,140.5978
5032,22008,Maitland,-34.3745,137.6733
5033,16085,Marla,-27.3002,133.6201
5034,17031,Marree,-29.6481,138.0637
5035,24518,Meningie,-35.6902,139.3375
5036,22031,Minlaton,-34.748,137.5276
5037,18195,Minnipa,-32.8427,135.1515
5038,17123,Moomba,-28.0997,140.1956
5039,23733,Mount Barker,-35.0639,138.8509
5040,23878,Mount Crawford ,-34.7253,138.9273
5041,26021,Mount Gambier,-37.7473,140.7739
5043,24521,Murray Bridge,-35.1234,139.2592
5044,26099,Naracoorte,-36.9813,140.727
5045,18115,Neptune Island,-35.3365,136.1174
5046,23885,Noarlunga,-35.1586,138.5057
5047,16032,Nonning,-32.5226,136.4926
5048,18106,Nullarbor,-31.4492,130.8976
5049,23373,Nuriootpa,-34.4761,139.0056
5050,17043,Oodnadatta,-27.5553,135.4456
5051,26100,Padthaway,-36.6539,140.5212
5052,23013,Parafield ,-34.7977,138.6281
5053,23875,Parawa,-35.5695,138.2864
5054,18201,Port Augusta,-32.5091,137.7144
5055,18192,Port Lincoln,-34.5993,135.8784
5056,21118,Port Pirie,-33.2341,138.001
5057,22015,Price,-34.2971,138.0014
5058,16097,Pukatja [ernabella],-26.2635,132.1771
5059,24048,Renmark ,-34.1983,140.6766
5060,26026,Robe,-37.1628,139.756
5061,23343,Rosedale,-34.5519,138.8342
5062,23122,Roseworthy,-34.5106,138.6763
5063,16096,Roxby Downs,-30.4829,136.8772
5064,21133,Snowtown ,-33.7676,138.2182
5065,22049,Stenhouse Bay,-35.2795,136.9392
5066,24580,Strathalbyn ,-35.2836,138.8934
5067,18079,Streaky Bay,-32.7963,134.2116
5068,16098,Tarcoola,-30.7051,134.5786
5069,23804,Victor Harbor,-35.5544,138.5997
5070,22018,Warooka,-34.9906,137.3995
5071,18120,Whyalla,-33.0539,137.5205
5072,16001,Woomera,-31.1558,136.8054
5073,18083,Wudinna,-33.043,135.4519
5074,19062,Yongala,-33.0287,138.7489
5075,20062,Yunta,-32.5707,139.5645
5076,23842,Mount Lofty,-34.9784,138.7088
5077,18217,Cummins,-34.2524,135.7135
6001,9500,Albany,-35.0289,117.8808
6002,9741,Albany Airport,-34.9414,117.8022
6003,2064,Argyle,-16.6381,128.4517
6004,9037,Badgingarra,-30.3381,115.5394
6005,11045,Balgair,-31.09,125.6589
6006,13007,Balgo Hills,-20.1417,127.9867
6007,11017,Balladonia,-32.4569,123.8653
6008,5094,Barrow Island,-20.875,115.4056
6009,10007,Bencubbin,-30.8081,117.8603
6010,10515,Beverley,-32.1083,116.9247
6011,9240,Bickley,-32.0075,116.1367
6012,3030,Bidyadanga,-18.6844,121.7803
6013,9617,Bridgetown,-33.9486,116.1311
6014,10524,Brookton,-32.3725,117.0072
6015,3003,Broome,-17.9475,122.2353
6016,12239,Bulga Downs,-28.4967,119.7436
6017,9965,Bunbury,-33.3567,115.6447
6018,9569,Busselton,-33.655,115.3194
6019,9603,Busselton Airport,-33.6858,115.4008
6021,9518,Cape Leeuwin,-34.3728,115.1358
6022,9519,Cape Naturaliste,-33.5372,115.0189
6023,8025,Carnamah,-29.6889,115.8869
6024,6011,Carnarvon,-24.8878,113.67
6025,13015,Carnegie,-25.7964,122.9753
6026,200790,Christmas Island,-10.4528,105.6875
6027,200284,Cocos Island,-12.1892,96.8344
6028,9994,Collie,-33.3608,116.1717
6029,10536,Corrigin,-32.3292,117.8733
6030,10286,Cunderdin,-31.6219,117.2217
6031,3080,Curtin RAAF Base,-17.5736,123.8217
6032,3057,Cygnet Bay,-16.4514,123.0086
6033,8297,Dalwallinu,-30.2761,116.6714
6034,6044,Denham,-25.9261,113.5319
6035,3032,Derby,-17.3706,123.6611
6036,9534,Donnybrook,-33.5719,115.8247
6037,1025,Doongan,-15.3797,126.3114
6038,9538,Dwellingup,-32.7103,116.0594
6039,8225,Eneabba,-29.8183,115.2722
6040,9789,Esperance,-33.83,121.8925
6041,9542,Esperance Airport,-33.6825,121.8275
6042,11003,Eucla,-31.6797,128.8792
6043,11019,Eyre,-32.2464,126.3008
6044,3093,Fitzroy Crossing,-18.1814,125.5619
6045,11052,Forrest,-30.8453,128.1092
6046,9256,Garden Island,-32.2433,115.6839
6047,6022,Gascoyne Junction,-25.0544,115.21
6048,8051,Geraldton,-28.7953,114.6975
6049,13017,Giles,-25.0341,128.301
6050,9178,Gingin,-31.4628,115.8642
6051,9106,Gosnells,-32.0486,115.9839
6052,2012,Halls Creek,-18.2292,127.6636
6053,9812,Harvey,-33.0789,115.8806
6054,9961,Hopetoun,-33.9306,120.1283
6055,10568,Hyden,-32.4419,118.8983
6056,9172,Jandakot,-32.1011,115.8794
6057,9842,Jarrahwood,-33.7964,115.6658
6058,10905,Jacup (Jerramungup District),-33.8878,119.1092
6059,9131,Jurien,-30.3081,115.0311
6060,8251,Kalbarri,-27.7119,114.165
6061,12038,Kalgoorlie-boulder,-30.7847,121.4533
6062,1019,Kalumburu,-14.2964,126.6453
6063,9111,Karnet,-32.44,116.0744
6064,4083,Karratha,-20.7097,116.7742
6065,10916,Katanning,-33.6856,117.6064
6066,10073,Kellerberrin,-31.6183,117.7217
6067,2014,Kimberley Research Station,-15.6547,128.7092
6068,2056,Kununurra,-15.7814,128.71
6069,1009,Kuri Bay,-15.4875,124.5222
6070,10911,Lake Grace,-33.1006,118.4647
6071,9114,Lancelin,-31.0164,115.33
6072,12305,Laverton,-28.6133,122.4236
6073,5007,Learmonth,-22.2406,114.0967
6074,12314,Leinster,-27.8386,120.7031
6075,12046,Leonora,-28.8836,121.3303
6076,4019,Mandora,-19.7419,120.8436
6077,9977,Mandurah,-32.5219,115.7119
6078,9573,Manjimup,-34.2508,116.145
6079,4106,Marble Bar,-21.1756,119.7497
6080,5008,Mardie,-21.1906,115.9797
6081,9746,Witchcliffe (Margaret River District),-34.0281,115.1042
6082,9194,Medina,-32.2208,115.8075
6083,7045,Meekatharra,-26.6136,118.5372
6084,10092,Merredin,-31.4756,118.2789
6086,8296,Morawa,-29.2039,116.0247
6088,9581,Mount Barker,-34.625,117.6361
6089,1018,Mount Elizabeth,-16.4181,126.1025
6090,7600,Mount Magnet,-28.1156,117.8425
6091,12044,Munglinup West,-33.5547,120.6997
6092,6099,Murchison,-26.8936,115.9561
6093,10612,Narembeen,-32.0656,118.3956
6094,10614,Narrogin,-32.9342,117.1797
6095,10692,Newdegate,-33.1131,118.84
6096,7176,Newman,-23.4169,119.7989
6097,12009,Norseman,-32.2147,121.7547
6098,9968,Shannon (Northcliffe District),-34.5683,116.3367
6099,8290,North Island (Abrolhos),-28.3008,113.5936
6100,10111,Northam,-31.6508,116.6586
6101,6072,Emu Creek,-23.0314,115.0414
6102,10622,Ongerup,-33.9644,118.4889
6103,5017,Onslow,-21.6689,115.1092
6105,7185,Paraburdoo,-23.1725,117.7494
6106,4028,Pardoo,-20.1078,119.5811
6107,7139,Paynes Find,-29.2708,117.6836
6108,9053,Pearce RAAF Base,-31.6669,116.0189
6109,9592,Pemberton,-34.4478,116.0433
6110,9021,Perth Airport,-31.9275,115.9764
6111,9225,Perth,-31.9192,115.8728
6112,10626,Pingelly,-32.5336,117.0831
6113,4032,Port Hedland,-20.3725,118.6317
6114,10633,Ravensthorpe,-33.5803,120.0458
6116,9964,Rocky Gully,-34.5714,117.0106
6117,4090,Roebourne,-20.7594,117.1583
6118,9193,Rottnest Island,-32.0069,115.5022
6119,12071,Salmon Gums,-32.9869,121.6239
6120,12320,Southern Cross,-31.2353,119.3564
6121,9215,Swanbourne,-31.9558,115.7619
6122,13030,Telfer,-21.7125,122.2281
6124,5072,Tom Price,-22.6967,117.7703
6125,1007,Troughton Island,-13.7542,126.1485
6126,10647,Wagin,-33.3075,117.3403
6127,10917,Wandering,-32.6722,116.6706
6128,13011,Warburton,-26.1317,126.5839
6129,2032,Warmun,-17.0156,128.2175
6130,13012,Wiluna,-26.5914,120.225
6131,9871,Windy Harbour,-34.8361,116.0308
6132,5026,Wittenoom,-22.2425,118.3358
6133,8137,Wongan Hills,-30.8917,116.7186
6134,1013,Wyndham,-15.4872,128.1247
6135,12090,Yeelirrie,-27.2842,120.0931
6136,10311,York,-31.8997,116.765
6137,8290,Abrolhos,-28.3008,113.5936
6138,9998,Walpole,-34.9469,116.7222
6139,10058,Goomalling,-31.2994,116.8269
6140,8095,Mullewa,-28.5367,115.5142
6141,1020,Truscott,-14.09,126.3867
6142,509169,Champion Lakes,-32.1061,115.9983
7001,92003,Bicheno,-41.8739,148.3036
7002,91284,Bridport,-41.0025,147.3869
7003,94166,Bull Bay,-43.0903,147.3611
7004,91009,Burnie,-41.0661,145.9431
7005,95003,Bushy Park,-42.7097,146.8983
7006,94212,Campania,-42.6867,147.4258
7007,94198,Cape Bruny,-43.4886,147.1444
7008,91245,Cape Grim,-40.6828,144.69
7009,97000,Cape Sorell,-42.1986,145.17
7010,92124,Maria Island,-42.6619,148.0181
7011,91306,Cressy,-41.7256,147.0794
7012,98017,Currie,-39.88,143.8831
7013,91126,Devonport,-41.1708,146.4267
7014,94020,Dover,-43.3167,147.0075
7015,92045,Eddystone Point,-40.9928,148.3467
7016,92012,Fingal,-41.6428,147.9664
7017,92114,Friendly Beaches,-41.9953,148.2794
7018,94137,Geeveston,-43.1639,146.9172
7019,94220,Grove,-42.9858,147.0742
7020,94191,Hartz Mountains,-43.2006,146.7683
7021,94029,Hobart,-42.8897,147.3278
7022,94008,Hobart Airport,-42.8339,147.5033
7023,92019,Lake Leake,-42.0067,147.7975
7024,96071,Lake St Clair,-42.1178,146.1772
7025,91237,Launceston,-41.4194,147.1222
7026,91311,Launceston Airport,-41.5492,147.2144
7027,96033,Liawenee,-41.8997,146.6694
7028,91293,Low Head,-41.0556,146.7856
7029,97080,Low Rocky Point,-42.985,145.5022
7030,91259,Luncheon Hill,-41.1492,145.1517
7031,94041,Maatsuyker Island,-43.6578,146.2711
7032,91223,Marrawah,-40.9089,144.7094
7033,95063,Maydena,-42.7567,146.6239
7034,94201,Melton Mowbray,-42.4928,147.1981
7036,97085,Mount Read,-41.8444,145.5419
7037,94087,Mount Wellington,-42.8967,147.235
7038,92027,Orford,-42.5519,147.8753
7039,95048,Ouse,-42.4842,146.7106
7042,93053,Ross,-42.025,147.4953
7043,92094,Scamander,-41.4639,148.2644
7044,97083,Scotts Peak Dam,-43.0425,146.2722
7045,91219,Scottsdale,-41.1708,147.4883
7046,91291,Sheffield,-41.3886,146.3219
7047,91292,Smithton,-40.8347,145.0847
7048,92120,St Helens,-41.3381,148.2792
7049,97072,Strahan,-42.155,145.2908
7050,97053,Strathgordon,-42.7681,146.0461
7051,92123,Swan Island,-40.7292,148.125
7052,92038,Swansea,-42.1236,148.0731
7053,95018,Tarraleah,-42.3003,146.4486
7054,94155,Tasman Island,-43.2397,148.0025
7055,94195,Tunnack,-42.4544,147.4614
7056,99005,Whitemark,-40.0928,148.0008
7057,91107,Wynyard,-40.9972,145.7292
7058,97024,Warra,-43.0609,146.704
7059,96003,Butlers Gorge,-42.2753,146.2758
8001,15502,Ali Curung,-21.0025,134.4029
8002,15590,Alice Springs,-23.7951,133.889
8003,14507,Alyangula,-13.8483,136.4198
8004,15594,Arltunga,-23.4635,134.6865
8005,14272,Batchelor,-13.0545,131.0252
8007,14723,Borroloola,-16.0757,136.3041
8009,15085,Brunette Downs,-18.637,135.945
8010,14703,Centre Island,-15.7426,136.8192
8011,14253,Channel Point,-13.1672,130.1225
8012,15511,Curtin Springs,-25.3139,131.7571
8013,14626,Daly Waters,-16.2636,133.3782
8014,14015,Darwin,-12.4239,130.8925
8015,14949,Delamere,-15.7442,131.9182
8016,14901,Douglas River Research Station,-13.8345,131.1872
8017,14277,Dum In Mirrie Island,-12.635,130.3725
8019,15131,Elliott,-17.5521,133.5407
8020,14508,Nhulunbuy [gove],-12.2741,136.8203
8021,14518,Groote Eylandt Airport,-13.9747,136.4631
8022,14198,Jabiru,-12.6594,132.8939
8023,15602,Jervois,-22.9494,136.1442
8024,14903,Katherine,-14.4437,132.2737
8025,14847,Kidman Springs,-16.1176,130.9558
8026,15603,Kulgera,-25.8428,133.3027
8027,14829,Lajamanu,-18.3325,130.6358
8028,14612,Larrimah,-15.5748,133.2138
8029,14938,Mango Farm,-13.7379,130.6834
8030,14405,Maningrida,-12.0569,134.2339
8031,14704,McArthur River Mine,-16.4423,136.076
8032,14274,McCluer Island,-11.0468,132.9791
8033,14041,Middle Point (Humpty Doo),-12.605,131.2988
8034,14404,Milingimbi,-12.0931,134.8919
8035,14517,Ngayawili (Elcho Island),-11.9971,135.5726
8036,14609,Ngukurr,-14.7295,134.7274
8038,14042,Oenpelli,-12.3263,133.0581
8039,15612,Papunya,-23.2044,131.9156
8040,14960,Pine Creek,-13.8242,131.8321
8042,200731,Point Fawcett (Bathurst Island),-11.7628,130.03
8043,14948,Port Keats,-14.2495,129.5282
8044,15666,Rabbit Flat,-20.1824,130.0148
8045,15135,Tennant Creek,-19.6423,134.1833
8046,15643,Ti-tree [territory Grape Farm],-22.4518,133.6377
8047,14850,Timber Creek,-15.6614,130.4808
8048,14932,Tindal RAAF,-14.5229,132.3826
8049,14825,Victoria River Downs,-16.403,131.0145
8050,14401,Warruwi (Goulburn Island),-11.6502,133.3796
8051,15652,Watarrka (Kings Canyon),-24.2914,131.5488
8052,14840,Wave Hill,-17.3871,131.1166
8053,14707,Wollogorang,-17.2122,137.9462
8054,15664,Wulungurru [kintor],-23.27,129.38
8055,15528,Yuendumu,-22.2562,131.8017
8056,15635,Uluru [ayers Rock],-25.1896,130.9737
8057,14142,Pirlangimpi,-11.4022,130.4217
9201,300000,Davis,-68.5744,77.9672
9202,300001,Mawson,-67.6017,62.8753
9203,300017,Casey,-66.2825,110.5231
9204,300004,Macquarie Island,-54.4994,158.9369
